{
    "places": [
        {
            "name": "Narodni divadlo",
            "googleId": "ChIJKatTv-iUC0cR_ptOFAQG8Z0",
            "position" : {"lat": 50.081020979571406, "lng": 14.413526058197021}
        },
        {
            "name": "MeetFactory",
            "googleId": "ChIJzXQP9kCUC0cR34Omvb-seKQ",
            "position" : {"lat": 50.0533408, "lng": 14.4083312}
        },
        {
            "name": "Wine Food Market s.r.o.",
            "googleId": "ChIJ1SixM0KUC0cRNbzFHUxPfWo",
            "position" : {"lat": 50.0631004, "lng": 14.4102063}
        },
        {
            "name": "Jazz Dock",
            "googleId": "ChIJVwJW9fmUC0cRu3WAFHD1hEc",
            "position" : {"lat": 50.077379499785344, "lng": 14.408414610023694}
        },
        {
            "name": "U Fleku",
            "googleId": "ChIJ8YREnvGUC0cR8oAzZCnuSwU",
            "position" : {"lat": 50.0788076, "lng": 14.4171702}
        }
    ]
}
